{
  "data": [
    {
      "name": "고려치과병원",
      "address": "충남 천안시 동남구 충절로 283 ",
      "subject": "구강악안면외과, 치과보철과, 치과교정과, 소아치과, 치주과, 구강내과, 예방치과",
      "phone": "041-564-2875",
      "lat": 36.7939241143472,
      "lng": 127.160470413196,
      "time": "평일 : 9:00 ~ 18:30 , 토 : 9:00 ~ 14:00, 일 : 휴무"
    },
    {
      "name": "문치과병원",
      "address": "충남 천안시 동남구 만남로 52",
      "subject": "구강악안면외과, 치과보철과, 치과교정과, 소아치과, 치주과, 예방치과",
      "phone": "041-563-2875",
      "lat": 36.8186585921611,
      "lng": 127.157862397786,
      "time": "평일 : 9:00 ~ 20:30(목 : 18:30) , 토 : 9:00 ~ 14:00 , 일 : 휴무"
    },
    {
      "name": "우리척병원",
      "address": "충남 천안시 서북구 충무로 155",
      "subject": "정형외과, 신경외과, 마취통증의학과, 영상의학과",
      "phone": "0507-1446-5119",
      "lat": 36.7939322552038,
      "lng": 127.124572049729,
      "time": "평일 : 9:00 ~ 19:00 , 토 : 9:00 ~ 15:00, 일 : 휴무"
    },
    {
      "name": "라온힐필립병원",
      "address": "충남 천안시 동남구 병천면 충절로 1782",
      "subject": "정신건강의학과",
      "phone": "0507-1396-7843",
      "lat": 36.7622855123082,
      "lng": 127.302837717581,
      "time": "평일 : 9:00 ~ 18:00 , 토 : 9:00 ~ 13:00"
    },
    {
      "name": "백석요양병원",
      "address": "충남 천안시 서북구 백석5길 4",
      "subject": "내과, 신경과, 외과, 정형외과, 신경외과, 재활의학과, 가정의학과, 한방내과, 침구과",
      "phone": "041-565-2300",
      "lat": 36.8214142792697,
      "lng": 127.127603145313,
      "time": "평일 : 8:30 ~ 17:30 , 주말 : 휴무"
    },
    {
      "name": "혜강병원",
      "address": "충남 천안시 동남구 대흥로 288",
      "subject": "내과, 신경과, 정신건강의학과, 정형외과, 피부과, 비뇨의학과, 가정의학과",
      "phone": "041-555-8275",
      "lat": 36.8135292596733,
      "lng": 127.14966794682,
      "time": "평일 : 8:30 ~ 18:00 , 토 : 9:00 ~ 13:00 , 일 : 휴무"
    },
    {
      "name": "참조은요양병원",
      "address": "충남 천안시 서북구 동서대로 110-23",
      "subject": "내과, 신경과, 외과, 정형외과, 신경외과, 영상의학과, 진단검사의학과, 가정의학과, 한방내과, 침구과",
      "phone": "0507-1476-2315",
      "lat": 36.8240597277935,
      "lng": 127.1352895328
    },
    {
      "name": "바른한방병원",
      "address": "충남 천안시 서북구 충무로 143-7",
      "subject": "재활의학과, 한방내과, 한방부인과, 한방소아과, 한방신경정신과, 한방재활의학과, 침구과",
      "phone": "041-415-1075",
      "lat": 36.7933681526015,
      "lng": 127.122582721875,
      "time": "평일 : 9:00 ~ 20:00(화 목 : 18:00) , 토 : 9:00 ~ 13:00 , 일 : 휴무"
    },
    {
      "name": "연세나무병원",
      "address": "충남 천안시 서북구 불당21로 67-18",
      "subject": "정형외과, 신경외과, 마취통증의학과, 영상의학과, 가정의학과",
      "phone": "041-537-0000",
      "lat": 36.8140496378693,
      "lng": 127.108504425757,
      "time": "평일 : 9:00 ~ 18:00 , 토 : 9:00 ~ 13:00 , 일 : 휴무"
    },
    {
      "name": "가야요양병원",
      "address": "충남 천안시 동남구 영성로 7",
      "subject": "내과, 신경과, 외과, 재활의학과, 한방내과",
      "phone": "041-558-1000",
      "lat": 36.7990043748526,
      "lng": 127.150570035921,
      "time": "평일 : 9:00 ~ 18:00 , 주말 : 휴무"
    },
    {
      "name": "천안로하스요양병원",
      "address": "충청남도 천안시 삼룡동 381-22",
      "subject": "내과, 신경과, 정신건강의학과, 신경외과, 마취통증의학과, 재활의학과, 가정의학과, 응급의학과, 한방내과, 한방재활의학과",
      "phone": "041-410-3000",
      "lat": 36.7674199,
      "lng": 127.1651079
    },
    {
      "name": "유림메디컬의원",
      "address": "충청남도 천안시 서북구 쌍용1동 415번지 1호 외1필지",
      "subject": "내과, 신경과, 외과, 정형외과, 마취통증의학과, 이비인후과, 재활의학과, 한방내과",
      "phone": "587-5511",
      "lat": 36.794187,
      "lng": 127.1212827
    },
    {
      "name": "통합요양병원",
      "address": "충청남도 보령시 남대천로 14 (대천동)",
      "subject": "내과, 이비인후과, 피부과, 비뇨의학과, 가정의학과, 침구과",
      "phone": "041-935-2656",
      "lat": 36.352276812,
      "lng": 126.5952299
    },
    {
      "name": "의료법인 광덕의료재단 도고온천요양병원",
      "address": "충청남도 아산시 도고면 와산리 53번지 3호",
      "subject": "내과, 재활의학과, 가정의학과, 한방내과, 한방재활의학과",
      "phone": "041-542-8118",
      "lat": 36.7652851,
      "lng": 126.9232604
    },
    {
      "name": "의료법인 산울의료재단 스파인치과병원",
      "address": "충청남도 아산시 배방읍 장재리 1725번지",
      "subject": "치과보철과, 치주과, 예방치과, 치과교정과, 치과보존과",
      "phone": "041-545-2875",
      "lat": 36.7888798,
      "lng": 127.1045004
    },
    {
      "name": "성지하임병원",
      "address": "충청남도 논산시 연산면 한전리 337번지 11호",
      "subject": "정신건강의학과",
      "phone": "041-734-9100",
      "lat": 36.205016,
      "lng": 127.1854885
    },
    {
      "name": "편안요양병원",
      "address": "충청남도 금산군 금산읍 상리 100번지",
      "subject": "내과, 외과, 정형외과, 신경외과, 피부과, 가정의학과",
      "phone": "041-751-0014",
      "lat": 36.1032213,
      "lng": 127.4896827
    },
    {
      "name": "의료법인 서해병원",
      "address": "충청남도 서천군 서천읍 사곡리 289번지 1호",
      "subject": "내과, 외과, 산부인과, 영상의학과, 가정의학과",
      "phone": "041-951-8282",
      "lat": 36.0844237,
      "lng": 126.6875775
    },
    {
      "name": "신동환병원",
      "address": "충청남도 홍성군 홍성읍 오관리 309번지 1호",
      "subject": "정신건강의학과",
      "phone": "041-631-7541",
      "lat": 36.6010941,
      "lng": 126.6673177
    },
    {
      "name": "의료법인 디와이 의료재단 홍성요양병원",
      "address": "충청남도 홍성군 홍성읍 오관리 284-1",
      "subject": "내과, 외과, 한방내과, 침구과",
      "phone": "041-631-9925",
      "lat": 36.60222,
      "lng": 126.6657404
    },
    {
      "name": "의료법인태안의료재단현대요양병원",
      "address": "충청남도 태안군 태안읍 남문리 627번지 1호",
      "subject": "내과, 가정의학과, 한방내과, 사상체질과, 침구과",
      "phone": "041-672-2900",
      "lat": 36.7500656,
      "lng": 126.2922475
    },
    {
      "name": "의료법인 계룡의료재단 계룡병원",
      "address": "충청남도 계룡시 금암동 145번지",
      "subject": "내과, 가정의학과",
      "phone": "042)551-8275",
      "lat": 36.2726551,
      "lng": 127.256967
    },
    {
      "name": "당진효제요양병원",
      "address": "충청남도 당진시 송악읍 본청길 96",
      "subject": "내과, 신경과, 정신건강의학과, 외과, 정형외과, 신경외과, 심장혈관흉부외과, 피부과, 비뇨의학과, 영상의학과, 재활의학과, 가정의학과, 한방내과",
      "phone": "041-355-8600",
      "lat": 36.8682616,
      "lng": 126.7228278
    }
  ]
}