{
    "data": [
        {
            "name": "메디그린한방병원",
            "address": "충청남도 천안시 서북구 불당동 1485 5층",
            "subject": "가정의학과, 한방내과, 한방부인과, 한방소아과, 한방안·이비인후·피부과, 한방신경정신과, 한방재활의학과, 사상체질과, 침구과",
            "phone": "1522-2357",
            "lat": 36.8191939,
            "lng": 127.110122,
		"time": "평일 : 9:30 ~ 20:00 , 토 : 9:00 ~ 17:00, 일 : 12:00 ~ 18:00"

        },
        {
            "name": "대전대학교천안한방병원",
            "address": "충청남도 천안시 서북구 두정동 621번지",
            "subject": "내과, 한방내과, 한방부인과, 한방소아과, 한방안·이비인후·피부과, 한방신경정신과, 한방재활의학과, 사상체질과, 침구과",
            "phone": "041-521-7000",
            "lat": 36.8256153032954,
            "lng": 127.128388468596,
	        "time": "평일 : 9:00 ~ 17:30 , 주말 : 9:00 ~ 17:00"
        },
        {
            "name": "의료법인영서의료재단천안충무병원",
            "address": "충남 천안시 서북구 다가말3길 8",
            "subject": "내과, 신경과, 정신건강의학과, 외과, 정형외과, 신경외과, 심장혈관흉부외과, 성형외과, 마취통증의학과, 산부인과, 소아청소년과, 안과, 이비인후과, 비뇨의학과, 영상의학과, 병리과, 진단검사의학과, 재활의학과, 가정의학과, 직업환경의학과, 응급의학과, 예방의학과, 구강악안면외과, 치과보철과, 치과교정과, 소아치과, 치주과, 치과보존과, 구강병리과, 예방치과",
            "phone": "041-570-7555",
            "lat": 36.7974200432454,
            "lng": 127.1314916307,
		"time": "평일 : 8:30 ~ 17:30 , 토 : 8:30 ~ 12:30, 일 : 휴무"
        },
        {
            "name": "혜성산부인과병원",
            "address": "충남 천안시 서북구 미라2길 18-11",
            "subject": "산부인과",
            "phone": "0507-1435-4567",
            "lat": 36.800860453088,
            "lng": 127.130461243989,
		"time": "평일 : 9:00 ~ 19:00 , 토 : 9:00 ~ 17:00, 일 : 9:00 ~ 13:00"
        },
        {
            "name": "예일병원",
            "address": "충남 천안시 서북구 충무로 129",
            "subject": "내과, 외과",
            "phone": "041-571-7000",
            "lat": 36.7930573982282,
            "lng": 127.121754573709,
		"time": "평일 : 9:00 ~ 18:00 , 토 : 9:00 ~ 13:00, 일 : 휴무"
        },
        {
            "name": "고려치과병원",
            "address": "충남 천안시 동남구 충절로 283 ",
            "subject": "구강악안면외과, 치과보철과, 치과교정과, 소아치과, 치주과, 구강내과, 예방치과",
            "phone": "041-564-2875",
            "lat": 36.7939241143472,
            "lng": 127.160470413196,
		"time": "평일 : 9:00 ~ 18:30 , 토 : 9:00 ~ 14:00, 일 : 휴무"
        },
        {
            "name": "천안우리병원",
            "address": "충남 천안시 동남구 남부대로 350",
            "subject": "내과, 정형외과, 신경외과, 마취통증의학과, 영상의학과, 가정의학과, 직업환경의학과",
            "phone": "041-590-9000",
            "lat": 36.7810429794168,
            "lng": 127.155712656832,
		"time": "평일 : 8:00 ~ 17:00 , 토 : 8:00 ~ 12:00, 일 : 휴무"
        },
        {
            "name": "가온치과병원",
            "address": "충남 천안시 서북구 동서대로 129",
            "subject": "마취통증의학과, 구강악안면외과, 치과보철과, 치과교정과, 소아치과, 치주과, 치과보존과",
            "phone": "552-0005",
            "lat": 36.8262123797769,
            "lng": 127.137805374662,
		"time": "평일 : 9:00 ~ 18:30(수 금 :  20:30) , 토 : 9:00 ~ 15:30, 일 : 휴무"
        },
        {
            "name": "천안시립노인전문병원",
            "address": "충청남도 천안시 동남구 목천읍 삼방로 735",
            "subject": "내과, 신경과, 외과, 정형외과, 신경외과, 재활의학과, 한방내과",
            "phone": "041-521-1114",
            "lat": 36.825419550702,
            "lng": 127.226194914722,
		"time": "평일 : 8:30 ~ 17:30 , 토 : 8:30 ~ 12:00, 일 : 휴무"
        },
        {
            "name": "삼성스카이병원",
            "address": "충남 천안시 서북구 성정공원1길 9-4",
            "subject": "내과, 재활의학과, 한방내과",
            "phone": "041-551-3391",
            "lat": 36.8268139581199,
            "lng": 127.13896794058,
		"time": "평일 : 9:00 ~ 18:00 , 주말 : 휴무"
        },
        {
            "name": "열린치과병원",
            "address": "충남 천안시 서북구 불당25로 176",
            "subject": "소아치과, 치주과, 치과보존과",
            "phone": "041-577-2233",
            "lat": 36.8162380448409,
            "lng": 127.109126844444,
		"time": "평일 : 9:30 ~ 19:00(월 목 : 20:30) , 토 : 9:30 ~ 13:00 , 일 : 휴무"
        },
        {
            "name": "문치과병원",
            "address": "충남 천안시 동남구 만남로 52",
            "subject": "구강악안면외과, 치과보철과, 치과교정과, 소아치과, 치주과, 예방치과",
            "phone": "041-563-2875",
            "lat": 36.8186585921611,
            "lng": 127.157862397786,
		"time": "평일 : 9:00 ~ 20:30(목 : 18:30) , 토 : 9:00 ~ 14:00 , 일 : 휴무"
        },
        {
            "name": "이화병원",
            "address": "충남 천안시 서북구 충무로 165",
            "subject": "내과, 신경과, 외과, 산부인과, 소아청소년과, 영상의학과",
            "phone": "041-579-1400",
            "lat": 36.794203836138,
            "lng": 127.125186711953,
		"time": "평일 : 9:00 ~ 18:00 , 토 : 9:00 ~ 13:00 , 일 : 휴무"
        },
        {
            "name": "연세우일치과병원",
            "address": "충남 천안시 서북구 서부대로 350",
            "subject": "구강악안면외과, 치과보철과, 치과교정과, 소아치과, 치주과, 치과보존과, 구강내과, 예방치과",
            "phone": "0507-1388-2245",
            "lat": 36.7985266655295,
            "lng": 127.126538456259,
		"time": "평일 : 9:30 ~ 19:00 , 토 : 9:30 ~ 12:30 , 일 : 휴무"
        },
        {
            "name": "천안요양병원",
            "address": "충청남도 천안시 동남구 삼룡천3길 10",
            "subject": "내과, 외과, 소아청소년과, 재활의학과, 가정의학과, 한방내과",
            "phone": "041-569-5533",
            "lat": 36.7909273855688,
            "lng": 127.163897924735,
		"time": "매일 : 8:30 ~ 17:30"
        },
        {
            "name": "마음애병원",
            "address": "충남 천안시 서북구 검은들3길 60",
            "subject": "정신건강의학과",
            "phone": "041-566-5119",
            "lat": 36.809877037974,
            "lng": 127.110178860341,
		"time": "평일 : 9:30 ~ 18:00(목 : 12:00) , 토 : 9:00 ~ 13:00"
        },
        {
            "name": "의료법인세온의료재단브라운요양병원",
            "address": "충남 천안시 동남구 목천읍 충절로 794",
            "subject": "내과, 신경과, 외과, 가정의학과, 한방내과, 침구과",
            "phone": "041-553-1234",
            "lat": 36.7682685080538,
            "lng": 127.199953483319,
		"time": "평일 : 9:30 ~ 18:00 , 주말 : 휴무"
        },
        {
            "name": "우리척병원",
            "address": "충남 천안시 서북구 충무로 155",
            "subject": "정형외과, 신경외과, 마취통증의학과, 영상의학과",
            "phone": "0507-1446-5119",
            "lat": 36.7939322552038,
            "lng": 127.124572049729,
		"time": "평일 : 9:00 ~ 19:00 , 토 : 9:00 ~ 15:00, 일 : 휴무"
        },
        {
            "name": "참조은치과병원",
            "address": "충남 천안시 서북구 불당21로 67-8",
            "subject": "치과보철과, 치과교정과, 소아치과, 치주과, 치과보존과, 통합치의학과",
            "phone": "041-417-3500",
            "lat": 36.8132686841477,
            "lng": 127.108264387572,
		"time": "평일 : 9:30 ~ 19:00 , 토 : 9:00 ~ 14:00, 일 : 휴무"
        },
        {
            "name": "두정이진병원",
            "address": "충남 천안시 서북구 동서대로 65",
            "subject": "소아청소년과",
            "phone": "041-579-2122",
            "lat": 36.8260999424455,
            "lng": 127.130601262079,
		"time": "평일 : 9:00 ~ 18:00 , 토 : 8:30 ~ 18:00, 일 : 8:30 ~ 13:00"
        },
        {
            "name": "서울우리병원",
            "address": "충남 천안시 서북구 한들3로 9",
            "subject": "정형외과, 신경외과, 마취통증의학과, 영상의학과",
            "phone": "1544-2822",
            "lat": 36.8242885900814,
            "lng": 127.123464048307,
		"time": "평일 : 9:00 ~ 18:00 , 토 : 9:00 ~ 13:00, 일 : 휴무"
        },
        {
            "name": "제중한방병원",
            "address": "충남 천안시 서북구 천안대로 1024-5",
            "subject": "가정의학과, 한방내과, 한방부인과, 한방소아과, 한방안·이비인후·피부과, 한방신경정신과, 한방재활의학과, 사상체질과, 침구과",
            "phone": "041-568-2632",
            "lat": 36.8333799134171,
            "lng": 127.152326848617,
		"time": "평일 : 9:00 ~ 17:00 , 주말 : 9:00 ~ 18:00"
        },
        {
            "name": "본정형외과병원",
            "address": "충남 천안시 서북구 불당대로 268",
            "subject": "정형외과, 신경외과, 마취통증의학과, 소아청소년과, 영상의학과, 재활의학과",
            "phone": "0507-1376-6010",
            "lat": 36.7998027656965,
            "lng": 127.125655459445,
		"time": "평일 : 9:00 ~ 18:00 , 토 : 9:00 ~ 13:00 , 일 : 휴무"
        },
        {
            "name": "다나힐요양병원",
            "address": "충남 천안시 서북구 직산읍 석양길 4",
            "subject": "내과, 신경과, 외과, 신경외과, 소아청소년과, 이비인후과, 피부과, 재활의학과, 가정의학과, 한방내과, 침구과",
            "phone": "0507-1406-7833",
            "lat": 36.8861568468681,
            "lng": 127.107216829903,
		"time": "평일 : 8:20 ~ 17:20 , 주말 : 휴무"	
        },
        {
            "name": "천안21세기병원",
            "address": "충남 천안시 서북구 부성6길 39-11",
            "subject": "내과, 정형외과, 신경외과, 마취통증의학과, 영상의학과",
            "phone": "1522-7634",
            "lat": 36.8365784026831,
            "lng": 127.137921948451,
		"time": "평일 : 9:00 ~ 18:00(금 : 19:00) , 토 : 9:00 ~ 14:00 , 일 : 휴무"	
        },
        {
            "name": "앙즈로여성병원",
            "address": "충남 천안시 서북구 불당33길 1",
            "subject": "외과, 산부인과, 소아청소년과",
            "phone": "041-576-5700",
            "lat": 36.8104655116746,
            "lng": 127.106967408939,
		"time": "평일 : 9:00 ~ 20:00 , 토 : 9:00 ~ 16:00 , 일 : 9:00 ~ 13:00"
        },
        {
            "name": "더보스톤치과병원",
            "address": "충남 천안시 서북구 불당33길 26",
            "subject": "구강악안면외과, 치과보철과, 치과교정과, 소아치과, 치주과, 치과보존과, 구강내과, 영상치의학과, 예방치과, 통합치의학과",
            "phone": "041-555-2879",
            "lat": 36.8124456173361,
            "lng": 127.107859552064,
		"time": "평일 : 9:30 ~ 20:00(수 금 : 18;30) , 토 : 9:30 ~ 14:30 , 일 : 휴무"
        },
        {
            "name": "서울대정병원",
            "address": "충남 천안시 서북구 불당33길 18",
            "subject": "내과, 정형외과, 신경외과, 마취통증의학과, 영상의학과",
            "phone": "0507-1426-0004",
            "lat": 36.8115948341983,
            "lng": 127.108008082548,
		"time": "평일 : 9:00 ~ 21:00(수 금 : 18;30) , 주말 : 9:00 ~ 16:30"
        },
        {
            "name": "라온힐필립병원",
            "address": "충남 천안시 동남구 병천면 충절로 1782",
            "subject": "정신건강의학과",
            "phone": "0507-1396-7843",
            "lat": 36.7622855123082,
            "lng": 127.302837717581,
		"time": "평일 : 9:00 ~ 18:00 , 토 : 9:00 ~ 13:00"
        },
        {
            "name": "로고스요양병원",
            "address": "충남 천안시 동남구 청수로 123-11",
            "subject": "내과, 신경과, 정신건강의학과, 외과, 정형외과, 신경외과, 마취통증의학과, 산부인과, 이비인후과, 피부과, 비뇨의학과, 영상의학과, 진단검사의학과, 재활의학과, 가정의학과, 한방내과, 한방부인과, 한방소아과, 한방안·이비인후·피부과, 한방신경정신과, 한방재활의학과, 사상체질과, 침구과",
            "phone": "041-410-2100",
            "lat": 36.7945442715417,
            "lng": 127.157699515226,
		"time": "평일 : 8:30 ~ 17:30 , 토 : 8:30 ~ 12:00 , 일 : 휴무"
        },
        {
            "name": "메디움천안요양병원",
            "address": "충남 천안시 동남구 유량로 180",
            "subject": "외과, 한방내과",
            "phone": "041-413-7100",
            "lat": 36.810989351516,
            "lng": 127.178318205438,
		"time": "평일 : 8:30 ~ 17:00 , 토 : 8:30 ~ 12:00 , 일 : 휴무"
        },
        {
            "name": "SG삼성조은병원",
            "address": "충청남도 천안시 서북구 불당동 1488 NS타워",
            "subject": "내과, 신경과, 영상의학과, 재활의학과, 가정의학과",
            "phone": "041-571-7581",
            "lat": 209670.8838,
            "lng": 368612.2603
        },
        {
            "name": "천안쌍용요양병원",
            "address": "충청남도 천안시 서북구 쌍용동 494번지 3호 쌍용가구백화점",
            "subject": "내과, 신경과, 정신건강의학과, 외과, 신경외과, 재활의학과, 가정의학과, 한방내과, 침구과",
            "phone": "041-574-1777",
            "lat": 211102.5225,
            "lng": 365944.9139
        },
        {
            "name": "마디손병원",
            "address": "충청남도 천안시 서북구 불당동 1840번지",
            "subject": "내과, 신경과, 외과, 정형외과, 신경외과, 심장혈관흉부외과, 성형외과, 마취통증의학과, 산부인과, 소아청소년과, 안과, 이비인후과, 피부과, 비뇨의학과, 영상의학과, 병리과, 진단검사의학과, 재활의학과, 가정의학과, 응급의학과",
            "phone": "041-581-9999",
            "lat": 209425.1917,
            "lng": 367232.6368
        },
        {
            "name": "천안세인트요양병원",
            "address": "충청남도 천안시 동남구 구성동 476번지 2호",
            "subject": "내과, 외과, 정형외과, 신경외과, 소아청소년과, 재활의학과, 가정의학과, 한방부인과, 한방소아과, 한방안·이비인후·피부과, 한방신경정신과, 한방재활의학과, 사상체질과, 침구과",
            "phone": "041-552-0700",
            "lat": 214189.3793,
            "lng": 366340.8054
        },
        {
            "name": "천안중앙병원",
            "address": "충청남도 천안시 서북구 성정동 1520 MS빌딩",
            "subject": "신경과, 정신건강의학과, 가정의학과",
            "phone": "041-561-0245",
            "lat": 212233.7657,
            "lng": 369539.2873
        },
        {
            "name": "화인메트로병원",
            "address": "충청남도 천안시 서북구 두정동 943번지",
            "subject": "내과, 신경과, 외과, 정형외과, 신경외과, 마취통증의학과, 영상의학과",
            "phone": "622-1300",
            "lat": 212143.9017,
            "lng": 370237.1862
        },
        {
            "name": "큰사랑요양병원",
            "address": "충청남도 천안시 서북구 성정동 954번지",
            "subject": "내과, 외과, 심장혈관흉부외과, 한방내과",
            "phone": "041-579-1190",
            "lat": 211795.1153,
            "lng": 368714.3902
        },
        {
            "name": "새로나병원",
            "address": "충청남도 천안시 동남구 유량동 398번지 1호",
            "subject": "신경과, 외과, 재활의학과",
            "phone": "041-520-7010",
            "lat": 215043.5896,
            "lng": 367920.8175
        },
        {
            "name": "단국대학교치과대학치과병원",
            "address": "충청남도 천안시 동남구 안서동 522번지 133호",
            "subject": "마취통증의학과, 구강악안면외과, 치과보철과, 치과교정과, 소아치과, 치주과, 치과보존과, 구강내과, 영상치의학과, 예방치과, 통합치의학과",
            "phone": "041-550-0114",
            "lat": 215074.4744,
            "lng": 370829.4213
        },
        {
            "name": "천안자생한방병원",
            "address": "충청남도 천안시 서북구 불당동 1537-1 정석프라자 8,9층",
            "subject": "내과, 영상의학과, 한방내과, 한방부인과, 한방소아과, 한방안·이비인후·피부과, 한방신경정신과, 한방재활의학과, 사상체질과, 침구과",
            "phone": "1577-0007",
            "lat": 209581.6233,
            "lng": 367955.3678
        },
        {
            "name": "백석요양병원",
            "address": "충청남도 천안시 서북구 백석동 836번지",
            "subject": "내과, 신경과, 외과, 정형외과, 신경외과, 재활의학과, 가정의학과, 한방내과, 침구과",
            "phone": "041-565-2300",
            "lat": 211311.0208,
            "lng": 368898.3263
        },
        {
            "name": "의료법인 혜강의료재단 혜강병원",
            "address": "충청남도 천안시 동남구 성황동 71-1 화정빌딩",
            "subject": "내과, 신경과, 정신건강의학과, 정형외과, 피부과, 비뇨의학과, 가정의학과",
            "phone": "041-555-8275",
            "lat": 213277.8016,
            "lng": 368008.5322
        },
        {
            "name": "의료법인아선의료재단메디케어요양병원",
            "address": "충청남도 천안시 서북구 불당동 705 메디컬타워, 5층, 7층",
            "subject": "내과, 신경과, 외과, 재활의학과, 가정의학과, 한방내과, 침구과",
            "phone": "041-567-2277",
            "lat": 209764.1787,
            "lng": 367772.3828
        },
        {
            "name": "천안재활병원",
            "address": "충청남도 천안시 서북구 성정동 1022번지",
            "subject": "내과, 신경과, 재활의학과, 가정의학과",
            "phone": "041-575-7100",
            "lat": 211973.2874,
            "lng": 368470.587
        },
        {
            "name": "참조은요양병원",
            "address": "충청남도 천안시 서북구 동서대로 110-23 (성정동)",
            "subject": "내과, 신경과, 외과, 정형외과, 신경외과, 영상의학과, 진단검사의학과, 가정의학과, 한방내과, 침구과",
            "phone": "041-415-2222",
            "lat": 211995.5256,
            "lng": 369196.042
        },
        {
            "name": "천안우리요양병원",
            "address": "충청남도 천안시 서북구 쌍용동 415번지 1호",
            "subject": "내과, 외과, 재활의학과, 가정의학과",
            "phone": "041-415-1004",
            "lat": 210752.2867,
            "lng": 365878.1086
        },
        {
            "name": "바른한방병원",
            "address": "충청남도 천안시 서북구 쌍용동 446-3 1~5층",
            "subject": "재활의학과, 한방내과, 한방부인과, 한방소아과, 한방신경정신과, 한방재활의학과, 침구과",
            "phone": "041-415-1075",
            "lat": 210871.4677,
            "lng": 365780.8906
        },
        {
            "name": "아이본병원",
            "address": "충청남도 천안시 서북구 불당동 1489-1",
            "subject": "내과, 소아청소년과, 피부과, 영상의학과, 재활의학과, 가정의학과, 직업환경의학과, 응급의학과, 한방내과, 한방소아과, 한방안·이비인후·피부과, 한방재활의학과, 사상체질과, 침구과",
            "phone": "041-563-0000",
            "lat": 209691.4165,
            "lng": 368693.3002
        },
        {
            "name": "더노블천안한방병원",
            "address": "충청남도 천안시 서북구 성정동 1527 더노블",
            "subject": "마취통증의학과, 재활의학과, 한방내과, 한방부인과, 한방소아과, 한방안·이비인후·피부과, 한방신경정신과, 한방재활의학과, 사상체질과, 침구과",
            "phone": "041-900-7979",
            "lat": 212280.27,
            "lng": 369454.2752
        },
        {
            "name": "프라미스요양병원",
            "address": "충청남도 천안시 동남구 삼룡동 381-22 천안효요양병원",
            "subject": "내과, 외과, 신경외과, 재활의학과, 한방내과, 한방부인과, 한방소아과, 한방안·이비인후·피부과, 한방신경정신과, 한방재활의학과, 사상체질과, 침구과",
            "phone": "041-622-3311",
            "lat": 214670.3923,
            "lng": 362906.8475
        },
        {
            "name": "연세나무병원",
            "address": "충청남도 천안시 서북구 불당동 1536번지 2호",
            "subject": "정형외과, 신경외과, 마취통증의학과, 영상의학과, 가정의학과",
            "phone": "041-537-0000",
            "lat": 209613.1888,
            "lng": 368077.2137
        },
        {
            "name": "가야요양병원",
            "address": "충청남도 천안시 동남구 영성동 170번지 2호",
            "subject": "내과, 신경과, 외과, 재활의학과, 한방내과",
            "phone": "041-558-1000",
            "lat": 213355.0463,
            "lng": 366407.4927
        },
        {
            "name": "의료법인 백석의료재단 한사랑요양병원",
            "address": "충청남도 천안시 동남구 대흥동 80번지",
            "subject": "내과, 정형외과, 신경외과, 재활의학과, 한방내과",
            "phone": "041-556-7781",
            "lat": 213145.0075,
            "lng": 367451.6181
        },
        {
            "name": "선한이웃요양병원",
            "address": "충청남도 천안시 동남구 구성동 87번지",
            "subject": "내과, 가정의학과, 침구과",
            "phone": "041-564-5555",
            "lat": 215763.9489,
            "lng": 366446.3467
        },
        {
            "name": "천안도솔한방병원",
            "address": "충청남도 천안시 서북구 쌍용동 1235",
            "subject": "내과, 마취통증의학과, 가정의학과, 한방내과, 한방부인과, 한방소아과, 한방안·이비인후·피부과, 한방신경정신과, 한방재활의학과, 사상체질과, 침구과",
            "phone": "041-571-1075",
            "lat": 211268.1939,
            "lng": 366534.0605
        },
        {
            "name": "나은필병원",
            "address": "충청남도 천안시 동남구 신부동 468-3",
            "subject": "내과, 정형외과, 성형외과, 마취통증의학과, 영상의학과, 재활의학과",
            "phone": "041-417-0001",
            "lat": 214154.429,
            "lng": 368636.7574
        },
        {
            "name": "천안다나힐병원",
            "address": "충청남도 천안시 동남구 터미널3길 5(신부동)",
            "subject": "내과, 외과, 신경외과, 소아청소년과, 피부과, 비뇨의학과, 가정의학과, 한방내과, 한방부인과, 한방소아과, 한방안·이비인후·피부과, 한방신경정신과, 사상체질과, 침구과",
            "phone": "041-562-7000",
            "lat": 214090.9297,
            "lng": 368733.0771
        },
        {
            "name": "예스365한방병원",
            "address": "충청남도 천안시 서북구 성성동 681",
            "subject": "정형외과, 신경외과, 비뇨의학과, 재활의학과, 한방내과, 한방부인과, 한방소아과, 한방안·이비인후·피부과, 한방신경정신과, 한방재활의학과, 사상체질과, 침구과",
            "phone": "041-417-1075",
            "lat": 211541.7053,
            "lng": 370948.2517
        },
        {
            "name": "직산큰병원",
            "address": "충청남도 천안시 서북구 직산읍 삼은리 36-16 2층 201호, 3층",
            "subject": "내과, 정형외과, 소아청소년과",
            "phone": "041-582-2200",
            "lat": 213716.8108,
            "lng": 375782.2854
        },
        {
            "name": "천안퍼스트힐요양병원",
            "address": "충청남도 천안시 서북구 백석동 173-2 1~4층",
            "subject": "내과, 산부인과, 가정의학과",
            "phone": "041-904-7000",
            "lat": 210878.8527,
            "lng": 369190.9341
        },
        {
            "name": "바를추한방병원",
            "address": "충청남도 천안시 서북구 불당동 1491 4층",
            "subject": "내과, 외과, 한방내과, 한방부인과, 한방소아과, 한방재활의학과, 침구과",
            "phone": "041-414-9696",
            "lat": 209712.8907,
            "lng": 368783.7319
        },
        {
            "name": "서울프라임병원",
            "address": "충청남도 천안시 서북구 불당25로 226-0, 2~4층 (불당동,골든스퀘어2차)",
            "subject": "내과, 외과, 정형외과, 신경외과, 마취통증의학과, 소아청소년과, 이비인후과, 영상의학과, 재활의학과, 가정의학과",
            "phone": "041-567-1111",
            "lat": 209736.2451,
            "lng": 368877.7535
        },
        {
            "name": "천안리턴병원",
            "address": "충청남도 천안시 서북구 불당동 1491 2층, 3층",
            "subject": "내과, 외과, 정형외과, 신경외과, 마취통증의학과, 소아청소년과, 이비인후과, 피부과, 재활의학과, 가정의학과, 한방내과, 한방부인과, 한방소아과, 한방안·이비인후·피부과, 한방신경정신과, 한방재활의학과, 사상체질과, 침구과",
            "phone": "041-414-7500",
            "lat": 209712.8907,
            "lng": 368783.7319
        },
        {
            "name": "천안성심요양병원",
            "address": "충청남도 천안시 서북구 원두정3길 37, 4층,5층 (두정동)",
            "subject": "내과, 신경과, 정형외과, 가정의학과, 한방내과",
            "phone": "041-564-8271",
            "lat": 212170.7133,
            "lng": 370236.836
        },
        {
            "name": "천안효요양병원",
            "address": "충청남도 천안시 삼룡동 381-22",
            "subject": "내과, 신경과, 정신건강의학과, 신경외과, 마취통증의학과, 재활의학과, 가정의학과, 응급의학과, 한방내과, 한방재활의학과",
            "phone": "410-3000",
            "lat": 214670.3923,
            "lng": 362906.8475
        },
        {
            "name": "유림요양병원",
            "address": "충청남도 천안시 서북구 쌍용1동 415번지 1호 외1필지",
            "subject": "내과, 신경과, 외과, 정형외과, 마취통증의학과, 이비인후과, 재활의학과, 한방내과",
            "phone": "587-5511",
            "lat": 210752.2867,
            "lng": 365878.1086
        },
        {
            "name": "의료법인금비의료재단시온척척병원",
            "address": "충청남도 천안시 서북구 두정동 945번지",
            "subject": "내과, 외과, 정형외과, 신경외과, 성형외과, 마취통증의학과, 피부과, 영상의학과",
            "phone": "041-523-1000",
            "lat": 212215.6754,
            "lng": 370300.9227
        },
        {
            "name": "충청남도 공주의료원",
            "address": "충청남도 공주시 웅진동 253번지 1호",
            "subject": "내과, 신경과, 외과, 정형외과, 심장혈관흉부외과, 마취통증의학과, 산부인과, 소아청소년과, 안과, 비뇨의학과, 영상의학과, 진단검사의학과, 재활의학과, 응급의학과, 침구과, 구강악안면외과, 치과보철과, 소아치과, 치주과, 치과보존과, 구강내과, 영상치의학과, 예방치과",
            "phone": "041-962-1111",
            "lat": 209726.6911,
            "lng": 328692.0952
        },
        {
            "name": "국립법무병원",
            "address": "충청남도 공주시 반포면 반포초교길 253 (공주치료감호소)",
            "subject": "정신건강의학과",
            "phone": "041-840-5400",
            "lat": 221242.9335,
            "lng": 323430.4677
        },
        {
            "name": "국립공주병원",
            "address": "충청남도 공주시 고분티로 623-21 (오곡동, 국립공주병원)",
            "subject": "내과, 정신건강의학과, 치과보존과",
            "phone": "041-850-5700",
            "lat": 209863.7844,
            "lng": 322364.5176
        },
        {
            "name": "의료법인 효심의료재단 공주참요양병원",
            "address": "충청남도 공주시 금학동 330-3",
            "subject": "정형외과, 가정의학과, 한방내과",
            "phone": "041-881-6100",
            "lat": 210183.8115,
            "lng": 325902.9786
        },
        {
            "name": "의료법인 효준의료재단 공주요양병원",
            "address": "충청남도 공주시 신풍면 대룡조평길 377",
            "subject": "내과, 외과, 마취통증의학과, 한방내과",
            "phone": "041-841-2984",
            "lat": 193547.6164,
            "lng": 335348.6479
        },
        {
            "name": "주은라파스요양병원",
            "address": "충청남도 공주시 탄천면 덕지리 179번지 6호",
            "subject": "내과, 신경과, 외과, 정형외과, 신경외과, 이비인후과, 피부과, 재활의학과, 가정의학과, 한방내과, 한방재활의학과",
            "phone": "041-854-6701",
            "lat": 205100.8197,
            "lng": 310098.5954
        },
        {
            "name": "공주에덴요양병원",
            "address": "충청남도 공주시 신관동 515번지 1호",
            "subject": "내과, 신경과, 외과, 정형외과, 한방내과",
            "phone": "041-858-9900",
            "lat": 211295.326,
            "lng": 330539.8372
        },
        {
            "name": "세종프라임요양병원",
            "address": "충청남도 공주시 정안면 장원길 345-33",
            "subject": "내과, 신경과, 외과, 산부인과, 가정의학과, 한방내과",
            "phone": "041-851-8200",
            "lat": 212323.101,
            "lng": 341504.8274
        },
        {
            "name": "공주푸르메요양병원",
            "address": "충청남도 공주시 태봉동 361번지 4호",
            "subject": "내과, 외과, 정형외과, 신경외과, 재활의학과, 가정의학과, 한방내과",
            "phone": "041-851-7575",
            "lat": 208024.6862,
            "lng": 323164.4714
        },
        {
            "name": "맑은마음병원",
            "address": "충청남도 공주시 금벽로 351 (신관동)",
            "subject": "정신건강의학과",
            "phone": "041-852-7979",
            "lat": 211267.0038,
            "lng": 330063.7228
        },
        {
            "name": "라온요양병원",
            "address": "충청남도 공주시 우성면 보흥리 339번지",
            "subject": "내과, 신경과, 가정의학과, 한방내과",
            "phone": "041-852-8575",
            "lat": 203871.4299,
            "lng": 327713.3541
        },
        {
            "name": "공주경희한방병원",
            "address": "충청남도 공주시 금흥동 190번지 12호",
            "subject": "마취통증의학과, 가정의학과, 한방내과, 한방부인과, 한방소아과, 한방안·이비인후·피부과, 한방신경정신과, 한방재활의학과, 사상체질과, 침구과",
            "phone": "041-852-0100",
            "lat": 213289.8139,
            "lng": 330979.0042
        },
        {
            "name": "공주참병원",
            "address": "충청남도 공주시 금학동 330-3",
            "subject": "정신건강의학과",
            "phone": "418816100",
            "lat": 210183.8115,
            "lng": 325902.9786
        },
        {
            "name": "통합요양병원",
            "address": "충청남도 보령시 남대천로 14 (대천동)",
            "subject": "내과, 이비인후과, 피부과, 비뇨의학과, 가정의학과, 침구과",
            "phone": "041-935-2650",
            "lat": 163595.3534,
            "lng": 316904.5268
        },
        {
            "name": "신제일병원",
            "address": "충청남도 보령시 궁촌동 156-12",
            "subject": "내과, 외과, 정형외과",
            "phone": "041-931-8330",
            "lat": 163431.6369,
            "lng": 315940.5853
        },
        {
            "name": "보령엘피스병원",
            "address": "충청남도 보령시 옥마로 277 (화산동)",
            "subject": "정신건강의학과",
            "phone": "041-934-1522",
            "lat": 165982.4004,
            "lng": 317240.9554
        },
        {
            "name": "보령시립노인전문병원",
            "address": "충청남도 보령시 청라면 장산리 828번지 8호 보령시립노인전문병원",
            "subject": "내과, 신경과, 재활의학과, 가정의학과, 한방내과",
            "phone": "419351166",
            "lat": 164830.3953,
            "lng": 322833.0103
        },
        {
            "name": "의료법인대웅의료재단보령요양병원",
            "address": "충청남도 보령시 중앙로 16 (동대동)",
            "subject": "내과, 신경과, 외과, 정형외과, 가정의학과, 한방내과",
            "phone": "041-934-3261",
            "lat": 163959.0149,
            "lng": 316236.234
        },
        {
            "name": "탑한방병원",
            "address": "충청남도 아산시 탕정면 한들물빛6로 14, 5.6.7층",
            "subject": "내과, 신경과, 마취통증의학과, 소아청소년과, 피부과, 재활의학과, 가정의학과, 한방내과, 한방부인과, 한방소아과, 한방안·이비인후·피부과, 한방재활의학과, 사상체질과, 침구과",
            "phone": "041-531-1192",
            "lat": 207480.3631,
            "lng": 365115.7795
        },
        {
            "name": "의료법인 정빈의료재단 아산병원",
            "address": "충청남도 아산시 배방읍 세교리 348번지 5호",
            "subject": "정신건강의학과",
            "phone": "041-548-9851",
            "lat": 209224.196,
            "lng": 364012.3583
        },
        {
            "name": "열린성애병원",
            "address": "충청남도 아산시 음봉면 월랑리 119",
            "subject": "정신건강의학과",
            "phone": "041-543-3580",
            "lat": 207078.4273,
            "lng": 370827.5006
        },
        {
            "name": "의료법인 다솔의료재단 늘푸른요양병원",
            "address": "충청남도 아산시 청운로 51 (온천동)",
            "subject": "신경과, 외과, 신경외과, 가정의학과, 한방내과, 한방재활의학과, 침구과",
            "phone": "041-360-5555",
            "lat": 200454.5326,
            "lng": 364147.8877
        },
        {
            "name": "꿈크는아이병원",
            "address": "충청남도 아산시 배방읍 공수리 1594번지",
            "subject": "소아청소년과",
            "phone": "041-533-3391",
            "lat": 204899.1162,
            "lng": 363846.5903
        },
        {
            "name": "도솔한방병원",
            "address": "충청남도 아산시 문화로 379 (모종동)",
            "subject": "내과, 재활의학과, 가정의학과, 한방내과, 한방부인과, 한방소아과, 한방안·이비인후·피부과, 한방신경정신과, 한방재활의학과, 사상체질과, 침구과",
            "phone": "-2886",
            "lat": 201698.0463,
            "lng": 364233.7748
        },
        {
            "name": "현대병원",
            "address": "충청남도 아산시 시민로 388 (온천동)",
            "subject": "내과, 외과, 정형외과, 비뇨의학과",
            "phone": "041-546-3636",
            "lat": 200023.9456,
            "lng": 364636.8109
        },
        {
            "name": "미래한국병원",
            "address": "충청남도 아산시 모종동 568-8",
            "subject": "내과, 외과, 정형외과, 신경외과, 마취통증의학과, 영상의학과",
            "phone": "041-545-6114",
            "lat": 201388.64,
            "lng": 364617.8466
        },
        {
            "name": "아산삼성요양병원",
            "address": "충청남도 아산시 온천2동 230-1",
            "subject": "내과, 신경과, 외과, 정형외과, 재활의학과, 가정의학과, 치과, 한방내과, 침구과",
            "phone": "041-549-7575",
            "lat": 199803.4707,
            "lng": 364554.906
        },
        {
            "name": "리더스아산병원",
            "address": "충청남도 아산시 권곡동 540-2",
            "subject": "내과, 정형외과, 마취통증의학과, 영상의학과",
            "phone": "041-540-3900",
            "lat": 200525.477,
            "lng": 365128.4443
        },
        {
            "name": "신도시이진병원",
            "address": "충청남도 아산시 배방읍 희망로46번길 45-9 (정주프라자, 지하1층, 2~5층)",
            "subject": "소아청소년과",
            "phone": "041-546-9800",
            "lat": 209510.71,
            "lng": 365374.975
        },
        {
            "name": "의료법인 광덕의료재단 도고온천요양병원",
            "address": "충청남도 아산시 도고면 와산리 53번지 3호",
            "subject": "내과, 재활의학과, 가정의학과, 한방내과, 한방재활의학과",
            "phone": "041-542-8118",
            "lat": 193076.7916,
            "lng": 362665.3269
        },
        {
            "name": "의료법인 산울의료재단 스파인치과병원",
            "address": "충청남도 아산시 배방읍 장재리 1725번지",
            "subject": "치과보철과, 치주과, 예방치과, 치과교정과, 치과보존과",
            "phone": "041-545-2875",
            "lat": 209251.1771,
            "lng": 365276.2605
        },
        {
            "name": "아산유리의료재단 아산유리요양병원",
            "address": "충청남도 아산시 도고면 도고면로 179",
            "subject": "내과, 신경과, 재활의학과, 가정의학과, 한방내과, 한방재활의학과, 침구과",
            "phone": "041-549-2100",
            "lat": 189431.2257,
            "lng": 362435.7046
        },
        {
            "name": "삼성미즈병원",
            "address": "충청남도 아산시 배방읍 장재리 1716",
            "subject": "내과, 외과, 산부인과, 소아청소년과",
            "phone": "1600-8383",
            "lat": 209266.2857,
            "lng": 365203.3171
        },
        {
            "name": "아산효요양병원",
            "address": "충청남도 아산시 용화동 368번지 51호 2필지",
            "subject": "내과, 신경과, 외과, 정형외과, 재활의학과, 침구과",
            "phone": "543-0011",
            "lat": 199324.4179,
            "lng": 363630.5349
        },
        {
            "name": "충청남도서산의료원",
            "address": "충청남도 서산시 석림동 568번지 5호",
            "subject": "내과, 신경과, 정신건강의학과, 외과, 정형외과, 신경외과, 성형외과, 마취통증의학과, 산부인과, 소아청소년과, 안과, 이비인후과, 비뇨의학과, 영상의학과, 진단검사의학과, 가정의학과, 응급의학과, 구강악안면외과, 치과보철과, 치과교정과, 소아치과, 치주과, 치과보존과, 구강내과, 영상치의학과, 구강병리과, 예방치과, 통합치의학과",
            "phone": "041-689-7000",
            "lat": 152212.272,
            "lng": 363927.7631
        },
        {
            "name": "서산중앙병원",
            "address": "충청남도 서산시 수석동 1번지 1호",
            "subject": "내과, 신경과, 외과, 정형외과, 신경외과, 마취통증의학과, 산부인과, 소아청소년과, 비뇨의학과, 영상의학과, 진단검사의학과, 재활의학과, 가정의학과, 직업환경의학과, 응급의학과, 치과",
            "phone": "041-661-1000",
            "lat": 155608.7407,
            "lng": 364604.7121
        },
        {
            "name": "우리요양병원",
            "address": "충청남도 서산시 석남동 16번지 28호",
            "subject": "내과, 외과, 신경외과, 소아청소년과, 이비인후과, 피부과, 가정의학과, 한방내과, 한방안·이비인후·피부과, 한방재활의학과, 침구과",
            "phone": "041-665-1166",
            "lat": 151104.8898,
            "lng": 363445.7272
        },
        {
            "name": "우리본병원",
            "address": "충청남도 서산시 예천동 25-2",
            "subject": "내과, 정형외과, 신경외과, 마취통증의학과, 영상의학과",
            "phone": "1599-5666",
            "lat": 151025.7226,
            "lng": 363649.6215
        },
        {
            "name": "라파엘 요양병원",
            "address": "충청남도 논산시 강경읍 황산리 33번지 1호",
            "subject": "내과, 외과, 정형외과, 소아청소년과, 피부과, 비뇨의학과, 영상의학과, 진단검사의학과, 재활의학과, 한방내과, 한방부인과, 한방소아과, 침구과",
            "phone": "041-745-6771",
            "lat": 201008.6536,
            "lng": 295214.8288
        },
        {
            "name": "논산사랑요양병원",
            "address": "충청남도 논산시 취암동 914",
            "subject": "외과, 정형외과, 가정의학과, 한방내과",
            "phone": "041-733-0300",
            "lat": 208029.7032,
            "lng": 299307.9449
        },
        {
            "name": "논산하나요양병원",
            "address": "충청남도 논산시 강산동 292번지",
            "subject": "내과, 신경과, 소아청소년과, 피부과, 재활의학과, 한방내과",
            "phone": "041-734-6700",
            "lat": 207996.7974,
            "lng": 298486.0292
        },
        {
            "name": "의료법인예향의료재단예향요양병원",
            "address": "충청남도 논산시 연산면 한전2길 49-26",
            "subject": "내과, 외과, 가정의학과, 한방내과",
            "phone": "041-736-7584",
            "lat": 216728.5407,
            "lng": 300342.7782
        },
        {
            "name": "성지하임병원",
            "address": "충청남도 논산시 연산면 한전리 337번지 11호",
            "subject": "정신건강의학과",
            "phone": "041-734-9100",
            "lat": 216597.7393,
            "lng": 300536.7539
        },
        {
            "name": "한마음요양병원",
            "address": "충청남도 논산시 반월동 184-25",
            "subject": "내과, 신경과, 외과, 가정의학과, 한방재활의학과, 침구과",
            "phone": "041-734-6767",
            "lat": 207234.1641,
            "lng": 300241.9257
        },
        {
            "name": "의료법인명일의료재단 대정요양병원",
            "address": "충청남도 논산시 상월면 지경리 69-2",
            "subject": "외과, 소아청소년과, 영상의학과, 가정의학과, 한방내과, 치과보존과",
            "phone": "041-730-2800",
            "lat": 214227.2501,
            "lng": 312149.2755
        },
        {
            "name": "의료법인백제병원",
            "address": "충청남도 논산시 취암동 21번지 14호",
            "subject": "내과, 신경과, 정신건강의학과, 정형외과, 신경외과, 심장혈관흉부외과, 마취통증의학과, 산부인과, 소아청소년과, 안과, 이비인후과, 병리과, 직업환경의학과, 응급의학과",
            "phone": "041-733-2191",
            "lat": 208417.6765,
            "lng": 299091.6427
        },
        {
            "name": "육군훈련소 지구병원",
            "address": "충청남도 논산시 연무읍 죽평리 사서함76-16",
            "subject": "내과, 외과, 정형외과, 신경외과, 심장혈관흉부외과, 마취통증의학과, 안과, 이비인후과, 피부과, 비뇨의학과, 진단검사의학과, 치과",
            "phone": "041-740-7814",
            "lat": 208901.1933,
            "lng": 290034.564
        },
        {
            "name": "논산시립노인전문병원",
            "address": "충청남도 논산시 취암동 516번지 8호",
            "subject": "신경과, 재활의학과, 한방내과, 한방신경정신과, 한방재활의학과",
            "phone": "041-734-9911",
            "lat": 208335.3418,
            "lng": 299131.8415
        },
        {
            "name": "연무요양병원",
            "address": "충청남도 논산시 연무읍 동산리 883번지 4호",
            "subject": "내과, 신경과, 정형외과, 신경외과, 산부인과, 이비인후과, 가정의학과, 한방내과",
            "phone": "041-741-5552",
            "lat": 209196.2423,
            "lng": 292458.0305
        },
        {
            "name": "새금산병원",
            "address": "충청남도 금산군 금산읍 중도리 56번지 12호",
            "subject": "내과, 외과, 정형외과, 신경외과, 마취통증의학과, 소아청소년과, 재활의학과, 응급의학과",
            "phone": "041-754-8272",
            "lat": 244621.1676,
            "lng": 289395.8014
        },
        {
            "name": "금산효사랑요양병원",
            "address": "충청남도 금산군 남일면 황풍리 343번지 6호",
            "subject": "내과, 외과, 정형외과, 신경외과, 가정의학과, 한방내과, 한방부인과, 한방소아과, 한방안·이비인후·피부과, 한방신경정신과, 사상체질과, 침구과",
            "phone": "041-751-2111",
            "lat": 245463.1396,
            "lng": 287037.0396
        },
        {
            "name": "의료법인예은의료재단편안요양병원",
            "address": "충청남도 금산군 금산읍 상리 100번지",
            "subject": "내과, 외과, 정형외과, 신경외과, 피부과, 가정의학과",
            "phone": "041-751-0014",
            "lat": 244021.6034,
            "lng": 289303.5458
        },
        {
            "name": "새금산요양병원",
            "address": "충청남도 금산군 금산읍 중도리 56번지 12호",
            "subject": "외과, 정형외과, 신경외과, 소아청소년과, 안과, 피부과, 비뇨의학과, 한방내과, 한방부인과, 한방소아과, 사상체질과",
            "phone": "754-0060",
            "lat": 244621.1676,
            "lng": 289395.8014
        },
        {
            "name": "부여노인전문병원",
            "address": "충청남도 부여군 규암면 반산리 254번지 1호",
            "subject": "내과, 신경과, 정신건강의학과, 외과, 정형외과, 신경외과, 마취통증의학과, 피부과, 재활의학과, 가정의학과, 한방내과, 한방안·이비인후·피부과, 한방신경정신과, 한방재활의학과, 사상체질과, 침구과",
            "phone": "041-836-1985",
            "lat": 188193.7282,
            "lng": 308322.4276
        },
        {
            "name": "부여청담병원",
            "address": "충청남도 부여군 부여읍 신정리 404-2",
            "subject": "정신건강의학과",
            "phone": "041-833-2089",
            "lat": 197980.116,
            "lng": 314210.4988
        },
        {
            "name": "의료법인부여의료재단 부여다사랑병원",
            "address": "충청남도 부여군 장암면 합곡리 330",
            "subject": "내과, 정신건강의학과, 소아청소년과, 결핵과",
            "phone": "041-832-7261",
            "lat": 188196.3013,
            "lng": 303126.1987
        },
        {
            "name": "학교법인 건양교육재단 건양대학교부여병원",
            "address": "충청남도 부여군 부여읍 계백로 200",
            "subject": "내과, 외과, 정형외과, 마취통증의학과, 산부인과, 소아청소년과, 영상의학과, 재활의학과, 가정의학과",
            "phone": "041-837-1200",
            "lat": 191078.4775,
            "lng": 308321.9683
        },
        {
            "name": "부여효요양병원",
            "address": "충청남도 부여군 초촌면 소사리 465-2",
            "subject": "내과, 신경과, 외과, 정형외과, 재활의학과, 가정의학과, 한방내과",
            "phone": "041-834-5114",
            "lat": 204350.575,
            "lng": 307205.8706
        },
        {
            "name": "의료법인연화의료재단 부여요양병원",
            "address": "충청남도 부여군 부여읍 저석리 23번지 6호  외 1필지",
            "subject": "비뇨의학과, 가정의학과, 한방내과",
            "phone": "041-833-7200",
            "lat": 198796.0346,
            "lng": 314424.597
        },
        {
            "name": "의료법인 서해병원",
            "address": "충청남도 서천군 서천읍 사곡리 289번지 1호",
            "subject": "내과, 외과, 산부인과, 영상의학과, 가정의학과",
            "phone": "041-951-8282",
            "lat": 171788.4592,
            "lng": 287151.506
        },
        {
            "name": "서천사랑병원",
            "address": "충청남도 서천군 판교면 판교리 407번지 1호",
            "subject": "내과, 정신건강의학과",
            "phone": "041-951-8114",
            "lat": 172340.6159,
            "lng": 296497.6993
        },
        {
            "name": "서천한국요양병원",
            "address": "충청남도 서천군 마서면 어리 191번지 1호",
            "subject": "내과, 외과, 정형외과, 산부인과, 병리과, 가정의학과, 한방내과",
            "phone": "041-950-5200",
            "lat": 173350.4332,
            "lng": 284023.6908
        },
        {
            "name": "동서천요양병원",
            "address": "충청남도 서천군 화양면 활산로 245, 동서천요양병원",
            "subject": "내과, 외과, 정형외과, 이비인후과, 피부과, 한방내과, 한방신경정신과, 사상체질과, 침구과",
            "phone": "041-952-7147",
            "lat": 182691.2051,
            "lng": 285127.0646
        },
        {
            "name": "의료법인 가온의료재단 청양요양병원",
            "address": "충청남도 청양군 청양읍 중앙로 151",
            "subject": "내과, 외과, 산부인과, 소아청소년과, 한방내과",
            "phone": "041-944-1277",
            "lat": 182284.8367,
            "lng": 328046.5672
        },
        {
            "name": "칠갑산의료재단 중앙병원",
            "address": "충청남도 청양군 청양읍 중앙로 21",
            "subject": "내과, 외과, 정형외과, 영상의학과, 병리과, 재활의학과, 가정의학과",
            "phone": "041-944-1077",
            "lat": 182197.4797,
            "lng": 327573.8528
        },
        {
            "name": "충청남도홍성의료원",
            "address": "충청남도 홍성군 홍성읍 고암리 572-3",
            "subject": "내과, 신경과, 정신건강의학과, 외과, 정형외과, 신경외과, 성형외과, 마취통증의학과, 산부인과, 소아청소년과, 안과, 이비인후과, 피부과, 비뇨의학과, 영상의학과, 진단검사의학과, 재활의학과, 가정의학과, 직업환경의학과, 응급의학과, 치주과",
            "phone": "041-630-6251",
            "lat": 170791.4787,
            "lng": 344251.4483
        },
        {
            "name": "신동환병원",
            "address": "충청남도 홍성군 홍성읍 오관리 309번지 1호",
            "subject": "정신건강의학과",
            "phone": "041-631-7541",
            "lat": 170165.1784,
            "lng": 344480.803
        },
        {
            "name": "의료법인 디와이 의료재단 홍성요양병원",
            "address": "충청남도 홍성군 홍성읍 오관리 284-1",
            "subject": "내과, 외과, 한방내과, 침구과",
            "phone": "041-631-2757",
            "lat": 170018.8397,
            "lng": 344614.9947
        },
        {
            "name": "홍성한국병원",
            "address": "충청남도 홍성군 홍성읍 대내길 97, 홍성한국병원",
            "subject": "정신건강의학과",
            "phone": "041-634-2088",
            "lat": 170808.326,
            "lng": 345817.013
        },
        {
            "name": "의료법인 예당의료재단 예산종합병원",
            "address": "예산읍 산성리 189-2",
            "subject": "내과, 외과, 정형외과, 신경외과, 성형외과, 마취통증의학과, 산부인과, 영상의학과, 진단검사의학과",
            "phone": "041-330-4000",
            "lat": 185431.6297,
            "lng": 354439.7381
        },
        {
            "name": "의료법인 모두온의료재단 메디플러스병원",
            "address": "충청남도 예산군 예산읍 주교리 109",
            "subject": "내과, 정형외과",
            "phone": "041-338-9119",
            "lat": 185120.8662,
            "lng": 352992.4649
        },
        {
            "name": "혜민한방병원",
            "address": "충청남도 태안군 태안읍 정주내1길 13-0 (혜민한방병원)",
            "subject": "내과, 신경과, 정신건강의학과, 정형외과, 신경외과, 소아청소년과, 이비인후과, 가정의학과, 한방내과, 한방부인과, 한방소아과, 한방안·이비인후·피부과, 한방신경정신과, 한방재활의학과, 사상체질과, 침구과",
            "phone": "041-400-7171",
            "lat": 137813.9506,
            "lng": 360637.9221
        },
        {
            "name": "경희치과병원",
            "address": "충청남도 태안군 태안읍 남문리 702-1",
            "subject": "구강악안면외과, 치과보철과, 치과교정과, 치주과, 치과보존과",
            "phone": "041-673-9800",
            "lat": 137766.3618,
            "lng": 360930.3859
        },
        {
            "name": "의료법인태안의료재단현대요양병원",
            "address": "충청남도 태안군 태안읍 남문리 627번지 1호",
            "subject": "내과, 가정의학과, 한방내과, 사상체질과, 침구과",
            "phone": "041-672-2900",
            "lat": 136721.8992,
            "lng": 361207.7093
        },
        {
            "name": "의료법인 계룡의료재단 계룡병원",
            "address": "충청남도 계룡시 금암동 145번지",
            "subject": "내과, 가정의학과",
            "phone": "042)551-8275",
            "lat": 223019.4351,
            "lng": 308022.9668
        },
        {
            "name": "계룡장수요양병원",
            "address": "충청남도 계룡시 엄사면 향적산길 48-8",
            "subject": "정형외과, 비뇨의학과, 한방내과, 한방부인과, 한방소아과, 한방안·이비인후·피부과, 한방신경정신과, 한방재활의학과, 사상체질과, 침구과",
            "phone": "042-840-7676",
            "lat": 219446.814,
            "lng": 309502.2615
        },
        {
            "name": "당진효제요양병원",
            "address": "충청남도 당진시 송악읍 본청길 96",
            "subject": "내과, 신경과, 정신건강의학과, 외과, 정형외과, 신경외과, 심장혈관흉부외과, 피부과, 비뇨의학과, 영상의학과, 재활의학과, 가정의학과, 한방내과",
            "phone": "041-355-8600",
            "lat": 175206.6484,
            "lng": 374073.4207
        },
        {
            "name": "당진솔담요양병원",
            "address": "충청남도 당진시 고대면 정미로 1055",
            "subject": "내과, 신경과, 외과, 정형외과, 신경외과, 피부과, 비뇨의학과, 재활의학과, 가정의학과, 예방의학과, 한방내과",
            "phone": "041-355-2002",
            "lat": 162466.3319,
            "lng": 379042.6256
        },
        {
            "name": "당진성모병원",
            "address": "충청남도 당진시 당진중앙1로 43 (읍내동)",
            "subject": "내과, 신경과, 외과, 정형외과, 신경외과, 영상의학과, 가정의학과",
            "phone": "041-351-0200",
            "lat": 166731.4748,
            "lng": 376920.4251
        },
        {
            "name": "열린내과병원",
            "address": "충청남도 당진시 읍내동 269-5 지하1층, 지상2-3층",
            "subject": "내과, 영상의학과",
            "phone": "041-351-3200",
            "lat": 167215.9749,
            "lng": 377340.2762
        },
        {
            "name": "당진요양병원",
            "address": "충청남도 당진시 신평면 말목길 22-13 (당진요양병원)",
            "subject": "내과, 외과, 정형외과, 재활의학과, 가정의학과, 한방내과, 한방신경정신과, 한방재활의학과, 침구과",
            "phone": "041-362-9550",
            "lat": 178756.7896,
            "lng": 376140.8295
        },
        {
            "name": "당진종합병원",
            "address": "충청남도 당진군 당진읍 시곡리 57번지 1호",
            "subject": "내과, 신경과, 외과, 정형외과, 신경외과, 성형외과, 마취통증의학과, 소아청소년과, 비뇨의학과, 영상의학과, 진단검사의학과, 재활의학과, 직업환경의학과, 응급의학과",
            "phone": "041-357-0100",
            "lat": 171789.9159,
            "lng": 378138.33
        },
        {
            "name": "9988병원",
            "address": "충청남도 당진시 운학길 3-0 (채운동)",
            "subject": "내과, 정형외과, 마취통증의학과, 영상의학과",
            "phone": "041-358-9988",
            "lat": 166488.765,
            "lng": 376852.7983
        },
        {
            "name": "당진우리병원",
            "address": "충청남도 당진시 채운동 266번지 4호",
            "subject": "내과, 외과, 정형외과, 신경외과, 소아청소년과",
            "phone": "041-356-7114",
            "lat": 166426.849,
            "lng": 377103.0079
        }
    ],
    "ts": "2024-07-19T11:19:19.258213"
}